{"venues":[{"id":"uk-manchester-arena","name":"AO Arena","slug":"ao-arena-manchester","capacity":21000,"address":"Victoria Station","city":"Manchester","state":"England","country":"United Kingdom","postalCode":"M3 1AR","latitude":53.4881,"longitude":-2.2447,"description":"One of Europe's largest indoor arenas","amenities":["parking","restaurants","bars","merchandise","vip-areas"],"images":[],"isActive":true,"createdById":"467a0b9f-5cd9-46b0-8905-621bc92a8664","createdAt":"2025-10-07T17:22:51.692Z","updatedAt":"2025-10-07T17:22:51.692Z","sections":[],"_count":{"events":8}},{"id":"fr-paris-accor-arena","name":"Accor Arena","slug":"accor-arena-paris","capacity":20300,"address":"Boulevard de Bercy","city":"Paris","state":"Île-de-France","country":"France","postalCode":"75012","latitude":48.8395,"longitude":2.379,"description":"Major arena for international rock tours","amenities":["parking","restaurants","bars","merchandise","vip-lounges"],"images":[],"isActive":true,"createdById":"467a0b9f-5cd9-46b0-8905-621bc92a8664","createdAt":"2025-10-07T17:22:51.692Z","updatedAt":"2025-10-07T17:22:51.692Z","sections":[],"_count":{"events":5}},{"id":"it-milan-alcatraz","name":"Alcatraz","slug":"alcatraz-milan","capacity":3000,"address":"Via Valtellina","city":"Milan","state":"Lombardy","country":"Italy","postalCode":"20159","latitude":45.499,"longitude":9.1898,"description":"Historic venue for rock and metal shows","amenities":["bar","merchandise","coat-check"],"images":[],"isActive":true,"createdById":"467a0b9f-5cd9-46b0-8905-621bc92a8664","createdAt":"2025-10-07T17:22:51.692Z","updatedAt":"2025-10-07T17:22:51.692Z","sections":[],"_count":{"events":1}},{"id":"pt-lisbon-altice-arena","name":"Altice Arena","slug":"altice-arena-lisbon","capacity":20000,"address":"Rossio dos Olivais","city":"Lisbon","state":"Lisbon","country":"Portugal","postalCode":"1990-231","latitude":38.7683,"longitude":-9.0948,"description":"Largest indoor arena in Portugal","amenities":["parking","restaurants","bars","merchandise","vip"],"images":[],"isActive":true,"createdById":"467a0b9f-5cd9-46b0-8905-621bc92a8664","createdAt":"2025-10-07T17:22:51.692Z","updatedAt":"2025-10-07T17:22:51.692Z","sections":[],"_count":{"events":3}},{"id":"be-brussels-ancienne-belgique","name":"Ancienne Belgique","slug":"ancienne-belgique-brussels","capacity":2000,"address":"Boulevard Anspach","city":"Brussels","state":"Brussels-Capital","country":"Belgium","postalCode":"1000","latitude":50.85,"longitude":4.3487,"description":"Historic venue for rock and alternative music","amenities":["bar","multiple-rooms","merchandise"],"images":[],"isActive":true,"createdById":"467a0b9f-5cd9-46b0-8905-621bc92a8664","createdAt":"2025-10-07T17:22:51.692Z","updatedAt":"2025-10-07T17:22:51.692Z","sections":[],"_count":{"events":4}},{"id":"it-rome-atlantico","name":"Atlantico Live","slug":"atlantico-rome","capacity":1800,"address":"Viale dell'Oceano Atlantico","city":"Rome","state":"Lazio","country":"Italy","postalCode":"00144","latitude":41.8329,"longitude":12.4687,"description":"Popular venue for rock and alternative concerts","amenities":["bar","merchandise","standing-area"],"images":[],"isActive":true,"createdById":"467a0b9f-5cd9-46b0-8905-621bc92a8664","createdAt":"2025-10-07T17:22:51.692Z","updatedAt":"2025-10-07T17:22:51.692Z","sections":[],"_count":{"events":6}},{"id":"es-donostia-kursaal","name":"Auditorio Kursaal","slug":"kursaal-donostia","capacity":1800,"address":"Avenida de Zurriola 1","city":"San Sebastián","state":"País Vasco","country":"España","postalCode":"20002","latitude":43.3228,"longitude":-1.9764,"description":"Icónico auditorio con vistas al mar","amenities":["parking","restaurante","bar","accesibilidad"],"images":[],"isActive":true,"createdById":"467a0b9f-5cd9-46b0-8905-621bc92a8664","createdAt":"2025-10-07T17:22:56.928Z","updatedAt":"2025-10-07T17:22:56.928Z","sections":[],"_count":{"events":2}},{"id":"es-oviedo-principe-felipe","name":"Auditorio Príncipe Felipe","slug":"principe-felipe-oviedo","capacity":2200,"address":"Calle Severo Ochoa s/n","city":"Oviedo","state":"Asturias","country":"España","postalCode":"33006","latitude":43.3553,"longitude":-5.868,"description":"Auditorio moderno para todo tipo de eventos","amenities":["parking","bar","accesibilidad","restaurante"],"images":[],"isActive":true,"createdById":"467a0b9f-5cd9-46b0-8905-621bc92a8664","createdAt":"2025-10-07T17:22:56.928Z","updatedAt":"2025-10-07T17:22:56.928Z","sections":[],"_count":{"events":5}},{"id":"se-stockholm-ericsson-globe","name":"Avicii Arena","slug":"avicii-arena-stockholm","capacity":16000,"address":"Globentorget","city":"Stockholm","state":"Stockholm","country":"Sweden","postalCode":"121 77","latitude":59.2936,"longitude":18.0839,"description":"Iconic spherical arena for major concerts","amenities":["parking","restaurants","bars","merchandise","vip"],"images":[],"isActive":true,"createdById":"467a0b9f-5cd9-46b0-8905-621bc92a8664","createdAt":"2025-10-07T17:22:51.692Z","updatedAt":"2025-10-07T17:22:51.692Z","sections":[],"_count":{"events":6}},{"id":"de-munich-backstage","name":"Backstage","slug":"backstage-munich","capacity":1200,"address":"Reitknechtstraße","city":"Munich","state":"Bavaria","country":"Germany","postalCode":"80639","latitude":48.1448,"longitude":11.5261,"description":"Alternative venue for underground rock and metal","amenities":["bar","outdoor-area","merchandise"],"images":[],"isActive":true,"createdById":"467a0b9f-5cd9-46b0-8905-621bc92a8664","createdAt":"2025-10-07T17:22:51.692Z","updatedAt":"2025-10-07T17:22:51.692Z","sections":[],"_count":{"events":7}},{"id":"de-hamburg-barclays-arena","name":"Barclays Arena","slug":"barclays-arena-hamburg","capacity":16000,"address":"Sylvesterallee","city":"Hamburg","state":"Hamburg","country":"Germany","postalCode":"22525","latitude":53.5873,"longitude":9.899,"description":"Multi-purpose arena for concerts and events","amenities":["parking","restaurants","bars","merchandise"],"images":[],"isActive":true,"createdById":"467a0b9f-5cd9-46b0-8905-621bc92a8664","createdAt":"2025-10-07T17:22:51.692Z","updatedAt":"2025-10-07T17:22:51.692Z","sections":[],"_count":{"events":2}},{"id":"uk-glasgow-barrowland","name":"Barrowland Ballroom","slug":"barrowland-glasgow","capacity":2100,"address":"Gallowgate","city":"Glasgow","state":"Scotland","country":"United Kingdom","postalCode":"G4 0TS","latitude":55.8542,"longitude":-4.2324,"description":"Legendary venue with iconic neon sign","amenities":["bar","accessibility","standing-area"],"images":[],"isActive":true,"createdById":"467a0b9f-5cd9-46b0-8905-621bc92a8664","createdAt":"2025-10-07T17:22:51.692Z","updatedAt":"2025-10-07T17:22:51.692Z","sections":[],"_count":{"events":3}},{"id":"es-bilbao-bizkaia-arena","name":"Bizkaia Arena","slug":"bizkaia-arena-bilbao","capacity":18640,"address":"Ronda de Azkue 1","city":"Bilbao","state":"País Vasco","country":"España","postalCode":"48902","latitude":43.301,"longitude":-2.9459,"description":"Mayor recinto cubierto del País Vasco","amenities":["parking","restaurantes","bares","tienda","vip"],"images":[],"isActive":true,"createdById":"467a0b9f-5cd9-46b0-8905-621bc92a8664","createdAt":"2025-10-07T17:22:56.928Z","updatedAt":"2025-10-07T17:22:56.928Z","sections":[],"_count":{"events":8}},{"id":"es-sevilla-cartuja-center","name":"Cartuja Center","slug":"cartuja-center-sevilla","capacity":7000,"address":"Camino de los Descubrimientos s/n","city":"Sevilla","state":"Andalucía","country":"España","postalCode":"41092","latitude":37.4042,"longitude":-5.9978,"description":"Complejo para eventos y conciertos en La Cartuja","amenities":["parking","bares","restaurantes","accesibilidad"],"images":[],"isActive":true,"createdById":"467a0b9f-5cd9-46b0-8905-621bc92a8664","createdAt":"2025-10-07T17:22:56.928Z","updatedAt":"2025-10-07T17:22:56.928Z","sections":[],"_count":{"events":4}},{"id":"pt-porto-coliseu","name":"Coliseu do Porto","slug":"coliseu-porto","capacity":3200,"address":"Rua de Passos Manuel","city":"Porto","state":"Porto","country":"Portugal","postalCode":"4000-385","latitude":41.1496,"longitude":-8.6069,"description":"Historic venue with excellent acoustics","amenities":["bar","seating","accessibility","merchandise"],"images":[],"isActive":true,"createdById":"467a0b9f-5cd9-46b0-8905-621bc92a8664","createdAt":"2025-10-07T17:22:51.692Z","updatedAt":"2025-10-07T17:22:51.692Z","sections":[],"_count":{"events":4}},{"id":"es-coruna-coliseum","name":"Coliseum da Coruña","slug":"coliseum-coruna","capacity":10500,"address":"Calle de la Torre de Hércules s/n","city":"A Coruña","state":"Galicia","country":"España","postalCode":"15002","latitude":43.3623,"longitude":-8.4115,"description":"Gran pabellón para conciertos y eventos","amenities":["parking","bar","restaurante","accesibilidad"],"images":[],"isActive":true,"createdById":"467a0b9f-5cd9-46b0-8905-621bc92a8664","createdAt":"2025-10-07T17:22:56.928Z","updatedAt":"2025-10-07T17:22:56.928Z","sections":[],"_count":{"events":7}},{"id":"de-berlin-columbiahalle","name":"Columbiahalle","slug":"columbiahalle-berlin","capacity":3500,"address":"Columbiadamm","city":"Berlin","state":"Berlin","country":"Germany","postalCode":"10965","latitude":52.4825,"longitude":13.3987,"description":"Popular venue for rock and metal concerts","amenities":["bar","merchandise","coat-check"],"images":[],"isActive":true,"createdById":"467a0b9f-5cd9-46b0-8905-621bc92a8664","createdAt":"2025-10-07T17:22:51.692Z","updatedAt":"2025-10-07T17:22:51.692Z","sections":[],"_count":{"events":3}},{"id":"uk-london-electric-ballroom","name":"Electric Ballroom","slug":"electric-ballroom-london","capacity":1500,"address":"184 Camden High St","city":"London","state":"England","country":"United Kingdom","postalCode":"NW1 8QP","latitude":51.5404,"longitude":-0.1431,"description":"Legendary Camden venue for rock and punk concerts","amenities":["bar","coat-check","merchandise"],"images":[],"isActive":true,"createdById":"467a0b9f-5cd9-46b0-8905-621bc92a8664","createdAt":"2025-10-07T17:22:51.692Z","updatedAt":"2025-10-07T17:22:51.692Z","sections":[],"_count":{"events":7}},{"id":"es-palma-es-gremi","name":"Es Gremi","slug":"es-gremi-palma","capacity":800,"address":"Carrer de Gremi de Teixidors 26","city":"Palma de Mallorca","state":"Islas Baleares","country":"España","postalCode":"07009","latitude":39.5842,"longitude":2.6489,"description":"Sala de referencia para rock en Palma","amenities":["bar","merchandising","parking"],"images":[],"isActive":true,"createdById":"467a0b9f-5cd9-46b0-8905-621bc92a8664","createdAt":"2025-10-07T17:22:56.928Z","updatedAt":"2025-10-07T17:22:56.928Z","sections":[],"_count":{"events":0}},{"id":"es-santander-escenario-santander","name":"Escenario Santander","slug":"escenario-santander","capacity":3000,"address":"Campa de la Magdalena s/n","city":"Santander","state":"Cantabria","country":"España","postalCode":"39005","latitude":43.4623,"longitude":-3.7894,"description":"Escenario al aire libre junto a la bahía","amenities":["parking","bar","vistas-mar"],"images":[],"isActive":true,"createdById":"467a0b9f-5cd9-46b0-8905-621bc92a8664","createdAt":"2025-10-07T17:22:56.928Z","updatedAt":"2025-10-07T17:22:56.928Z","sections":[],"_count":{"events":0}},{"id":"be-brussels-forest-national","name":"Forest National","slug":"forest-national-brussels","capacity":8500,"address":"Avenue Victor Rousseau","city":"Brussels","state":"Brussels-Capital","country":"Belgium","postalCode":"1190","latitude":50.8108,"longitude":4.3182,"description":"Major concert hall in Brussels","amenities":["parking","bars","merchandise","accessibility"],"images":[],"isActive":true,"createdById":"467a0b9f-5cd9-46b0-8905-621bc92a8664","createdAt":"2025-10-07T17:22:51.692Z","updatedAt":"2025-10-07T17:22:51.692Z","sections":[],"_count":{"events":1}},{"id":"at-vienna-gasometer","name":"Gasometer","slug":"gasometer-vienna","capacity":3500,"address":"Guglgasse","city":"Vienna","state":"Vienna","country":"Austria","postalCode":"1110","latitude":48.1852,"longitude":16.4208,"description":"Converted gasometer hosting rock concerts","amenities":["bar","merchandise","unique-architecture"],"images":[],"isActive":true,"createdById":"467a0b9f-5cd9-46b0-8905-621bc92a8664","createdAt":"2025-10-07T17:22:51.692Z","updatedAt":"2025-10-07T17:22:51.692Z","sections":[],"_count":{"events":5}},{"id":"es-laspalmas-gran-canaria-arena","name":"Gran Canaria Arena","slug":"gran-canaria-arena","capacity":11000,"address":"Calle Fondos de Segura s/n","city":"Las Palmas de Gran Canaria","state":"Canarias","country":"España","postalCode":"35019","latitude":28.0996,"longitude":-15.4537,"description":"Principal recinto cubierto de Canarias","amenities":["parking","restaurantes","bares","accesibilidad"],"images":[],"isActive":true,"createdById":"467a0b9f-5cd9-46b0-8905-621bc92a8664","createdAt":"2025-10-07T17:22:56.928Z","updatedAt":"2025-10-07T17:22:56.928Z","sections":[],"_count":{"events":8}},{"id":"fr-lyon-halle-tony-garnier","name":"Halle Tony Garnier","slug":"halle-tony-garnier-lyon","capacity":17000,"address":"20 Place Antonin Perrin","city":"Lyon","state":"Auvergne-Rhône-Alpes","country":"France","postalCode":"69007","latitude":45.7343,"longitude":4.8271,"description":"Large concert hall for major rock events","amenities":["parking","bars","merchandise","accessibility"],"images":[],"isActive":true,"createdById":"467a0b9f-5cd9-46b0-8905-621bc92a8664","createdAt":"2025-10-07T17:22:51.692Z","updatedAt":"2025-10-07T17:22:51.692Z","sections":[],"_count":{"events":6}},{"id":"ch-zurich-hallenstadion","name":"Hallenstadion","slug":"hallenstadion-zurich","capacity":13000,"address":"Wallisellenstrasse","city":"Zurich","state":"Zurich","country":"Switzerland","postalCode":"8050","latitude":47.4109,"longitude":8.5498,"description":"Major arena for international rock tours","amenities":["parking","restaurants","bars","merchandise"],"images":[],"isActive":true,"createdById":"467a0b9f-5cd9-46b0-8905-621bc92a8664","createdAt":"2025-10-07T17:22:51.692Z","updatedAt":"2025-10-07T17:22:51.692Z","sections":[],"_count":{"events":7}},{"id":"es-granada-industrial-copera","name":"Industrial Copera","slug":"industrial-copera-granada","capacity":2500,"address":"Camino de Purchil s/n","city":"Granada","state":"Andalucía","country":"España","postalCode":"18004","latitude":37.1529,"longitude":-3.6087,"description":"Espacio industrial para conciertos y festivales","amenities":["parking","bar","food-trucks","terraza"],"images":[],"isActive":true,"createdById":"467a0b9f-5cd9-46b0-8905-621bc92a8664","createdAt":"2025-10-07T17:22:56.928Z","updatedAt":"2025-10-07T17:22:56.928Z","sections":[],"_count":{"events":3}},{"id":"es-bilbao-kafe-antzokia","name":"Kafe Antzokia","slug":"kafe-antzokia-bilbao","capacity":1500,"address":"Calle San Vicente 2","city":"Bilbao","state":"País Vasco","country":"España","postalCode":"48001","latitude":43.2582,"longitude":-2.9264,"description":"Emblemática sala de rock en el Casco Viejo","amenities":["bar","restaurante","terraza","merchandising"],"images":[],"isActive":true,"createdById":"467a0b9f-5cd9-46b0-8905-621bc92a8664","createdAt":"2025-10-07T17:22:56.928Z","updatedAt":"2025-10-07T17:22:56.928Z","sections":[],"_count":{"events":8}},{"id":"fr-paris-olympia","name":"L'Olympia","slug":"olympia-paris","capacity":2000,"address":"28 Boulevard des Capucines","city":"Paris","state":"Île-de-France","country":"France","postalCode":"75009","latitude":48.87,"longitude":2.3275,"description":"Historic music hall hosting rock legends","amenities":["bar","accessibility","seating"],"images":[],"isActive":true,"createdById":"467a0b9f-5cd9-46b0-8905-621bc92a8664","createdAt":"2025-10-07T17:22:51.692Z","updatedAt":"2025-10-07T17:22:51.692Z","sections":[],"_count":{"events":9}},{"id":"pt-lisbon-lav","name":"LAV - Lisboa ao Vivo","slug":"lav-lisbon","capacity":2500,"address":"Rua Açores","city":"Lisbon","state":"Lisbon","country":"Portugal","postalCode":"1000-003","latitude":38.7223,"longitude":-9.1393,"description":"Modern venue for rock and metal concerts","amenities":["bar","merchandise","parking"],"images":[],"isActive":true,"createdById":"467a0b9f-5cd9-46b0-8905-621bc92a8664","createdAt":"2025-10-07T17:22:51.692Z","updatedAt":"2025-10-07T17:22:51.692Z","sections":[],"_count":{"events":3}},{"id":"fr-paris-bataclan","name":"Le Bataclan","slug":"bataclan-paris","capacity":1500,"address":"50 Boulevard Voltaire","city":"Paris","state":"Île-de-France","country":"France","postalCode":"75011","latitude":48.8632,"longitude":2.3714,"description":"Iconic venue for rock and alternative music","amenities":["bar","merchandise","standing-area"],"images":[],"isActive":true,"createdById":"467a0b9f-5cd9-46b0-8905-621bc92a8664","createdAt":"2025-10-07T17:22:51.692Z","updatedAt":"2025-10-07T17:22:51.692Z","sections":[],"_count":{"events":6}},{"id":"es-madrid-arena","name":"Madrid Arena","slug":"madrid-arena","capacity":12000,"address":"Avenida de Portugal s/n","city":"Madrid","state":"Madrid","country":"España","postalCode":"28011","latitude":40.3986,"longitude":-3.7539,"description":"Gran pabellón para festivales y macroconciertos","amenities":["parking","bares","food-trucks","merchandising"],"images":[],"isActive":true,"createdById":"467a0b9f-5cd9-46b0-8905-621bc92a8664","createdAt":"2025-10-07T17:22:56.928Z","updatedAt":"2025-10-07T17:22:56.928Z","sections":[],"_count":{"events":2}},{"id":"uk-manchester-academy","name":"Manchester Academy","slug":"manchester-academy","capacity":2600,"address":"Oxford Road","city":"Manchester","state":"England","country":"United Kingdom","postalCode":"M13 9PR","latitude":53.4665,"longitude":-2.2324,"description":"Multi-room venue for rock and alternative music","amenities":["bar","accessibility","merchandise"],"images":[],"isActive":true,"createdById":"467a0b9f-5cd9-46b0-8905-621bc92a8664","createdAt":"2025-10-07T17:22:51.692Z","updatedAt":"2025-10-07T17:22:51.692Z","sections":[],"_count":{"events":6}},{"id":"it-milan-mediolanum-forum","name":"Mediolanum Forum","slug":"mediolanum-forum-milan","capacity":12700,"address":"Via G. di Vittorio","city":"Milan","state":"Lombardy","country":"Italy","postalCode":"20090","latitude":45.4836,"longitude":9.1236,"description":"Premier concert venue in Milan","amenities":["parking","restaurants","bars","merchandise","vip"],"images":[],"isActive":true,"createdById":"467a0b9f-5cd9-46b0-8905-621bc92a8664","createdAt":"2025-10-07T17:22:51.692Z","updatedAt":"2025-10-07T17:22:51.692Z","sections":[],"_count":{"events":3}},{"id":"nl-amsterdam-melkweg","name":"Melkweg","slug":"melkweg-amsterdam","capacity":1500,"address":"Lijnbaansgracht","city":"Amsterdam","state":"North Holland","country":"Netherlands","postalCode":"1017 CW","latitude":52.3644,"longitude":4.8819,"description":"Legendary venue for alternative and rock music","amenities":["bar","cafe","merchandise","gallery"],"images":[],"isActive":true,"createdById":"467a0b9f-5cd9-46b0-8905-621bc92a8664","createdAt":"2025-10-07T17:22:51.692Z","updatedAt":"2025-10-07T17:22:51.692Z","sections":[],"_count":{"events":8}},{"id":"de-berlin-mercedes-benz-arena","name":"Mercedes-Benz Arena","slug":"mercedes-benz-arena-berlin","capacity":17000,"address":"Mercedes-Platz","city":"Berlin","state":"Berlin","country":"Germany","postalCode":"10243","latitude":52.5064,"longitude":13.4437,"description":"Modern arena hosting international rock acts","amenities":["parking","restaurants","bars","merchandise","vip"],"images":[],"isActive":true,"createdById":"467a0b9f-5cd9-46b0-8905-621bc92a8664","createdAt":"2025-10-07T17:22:51.692Z","updatedAt":"2025-10-07T17:22:51.692Z","sections":[],"_count":{"events":6}},{"id":"e24f8e0e-c13a-4fd9-850a-bb97c6c48b3e","name":"Metal Cave Club","slug":"metal-cave-club-valencia","capacity":600,"address":"Calle Underground 13","city":"Valencia","state":"Valencia","country":"España","postalCode":"46003","latitude":null,"longitude":null,"description":"Club underground íntimo para bandas de metal emergentes","amenities":["bar","stage","sound-system","intimate-atmosphere"],"images":[],"isActive":true,"createdById":"467a0b9f-5cd9-46b0-8905-621bc92a8664","createdAt":"2025-09-27T12:26:04.252Z","updatedAt":"2025-09-27T12:26:04.252Z","sections":[],"_count":{"events":8}},{"id":"a09c3413-4b8e-4605-bf25-7601292e93c1","name":"Metal Underground Club","slug":"metal-underground-club","capacity":800,"address":"Calle Subterr??nea 7","city":"Valencia","state":"Valencia","country":"España","postalCode":"46002","latitude":null,"longitude":null,"description":"Club íntimo perfecto para tributos, acústicos y bandas emergentes","amenities":["bar","stage","sound-system","intimate-atmosphere"],"images":[],"isActive":true,"createdById":"467a0b9f-5cd9-46b0-8905-621bc92a8664","createdAt":"2025-09-26T20:22:46.140Z","updatedAt":"2025-09-26T20:22:46.140Z","sections":[{"id":"65334e73-d6c4-4f7f-a73d-ecb85b1fe127","venueId":"a09c3413-4b8e-4605-bf25-7601292e93c1","name":"Front Pit","capacity":300,"rowCount":1,"seatsPerRow":300},{"id":"00f997c6-a0b3-4c31-b3a7-6777dc8d667e","venueId":"a09c3413-4b8e-4605-bf25-7601292e93c1","name":"General Floor","capacity":400,"rowCount":1,"seatsPerRow":400},{"id":"696b9fd9-ac31-4aaa-818b-7dc4df8e9dde","venueId":"a09c3413-4b8e-4605-bf25-7601292e93c1","name":"Bar Area","capacity":100,"rowCount":1,"seatsPerRow":100}],"_count":{"events":8}},{"id":"f794e6f0-28c4-4512-ab20-1954720ea984","name":"Metal Underground Club","slug":"metal-underground-club-2024","capacity":800,"address":"Calle Subterr??nea 7","city":"Valencia","state":"Valencia","country":"España","postalCode":"46002","latitude":null,"longitude":null,"description":"Club íntimo perfecto para tributos, acústicos y bandas emergentes","amenities":["bar","stage","sound-system","intimate-atmosphere"],"images":[],"isActive":true,"createdById":"467a0b9f-5cd9-46b0-8905-621bc92a8664","createdAt":"2025-09-26T20:29:18.582Z","updatedAt":"2025-09-26T20:29:18.582Z","sections":[],"_count":{"events":8}},{"id":"cz-prague-o2-arena","name":"O2 Arena Prague","slug":"o2-arena-prague","capacity":18000,"address":"Českomoravská","city":"Prague","state":"Prague","country":"Czech Republic","postalCode":"190 00","latitude":50.1032,"longitude":14.4749,"description":"Largest arena in Czech Republic","amenities":["parking","restaurants","bars","merchandise","vip"],"images":[],"isActive":true,"createdById":"467a0b9f-5cd9-46b0-8905-621bc92a8664","createdAt":"2025-10-07T17:22:51.692Z","updatedAt":"2025-10-07T17:22:51.692Z","sections":[],"_count":{"events":4}},{"id":"de-munich-olympiahalle","name":"Olympiahalle","slug":"olympiahalle-munich","capacity":15500,"address":"Spiridon-Louis-Ring","city":"Munich","state":"Bavaria","country":"Germany","postalCode":"80809","latitude":48.1743,"longitude":11.5517,"description":"Olympic venue hosting major concerts","amenities":["parking","restaurants","bars","accessibility"],"images":[],"isActive":true,"createdById":"467a0b9f-5cd9-46b0-8905-621bc92a8664","createdAt":"2025-10-07T17:22:51.692Z","updatedAt":"2025-10-07T17:22:51.692Z","sections":[],"_count":{"events":9}},{"id":"gr-athens-oaka","name":"Olympic Indoor Hall","slug":"oaka-athens","capacity":18000,"address":"Leof. Spyrou Loui","city":"Athens","state":"Attica","country":"Greece","postalCode":"151 23","latitude":38.0366,"longitude":23.7847,"description":"Olympic venue hosting major concerts","amenities":["parking","bars","merchandise","accessibility"],"images":[],"isActive":true,"createdById":"467a0b9f-5cd9-46b0-8905-621bc92a8664","createdAt":"2025-10-07T17:22:51.692Z","updatedAt":"2025-10-07T17:22:51.692Z","sections":[],"_count":{"events":9}},{"id":"no-oslo-spektrum","name":"Oslo Spektrum","slug":"oslo-spektrum","capacity":9700,"address":"Sonja Henies plass","city":"Oslo","state":"Oslo","country":"Norway","postalCode":"0185","latitude":59.9127,"longitude":10.756,"description":"Premier concert venue in Norway","amenities":["parking","bars","merchandise","accessibility"],"images":[],"isActive":true,"createdById":"467a0b9f-5cd9-46b0-8905-621bc92a8664","createdAt":"2025-10-07T17:22:51.692Z","updatedAt":"2025-10-07T17:22:51.692Z","sections":[],"_count":{"events":5}},{"id":"es-zaragoza-pabellon-principe-felipe","name":"Pabellón Príncipe Felipe","slug":"pabellon-principe-felipe-zaragoza","capacity":10800,"address":"Eduardo Ibarra 5","city":"Zaragoza","state":"Aragón","country":"España","postalCode":"50009","latitude":41.6324,"longitude":-0.9096,"description":"Principal pabellón para conciertos en Zaragoza","amenities":["parking","bar","accesibilidad"],"images":[],"isActive":true,"createdById":"467a0b9f-5cd9-46b0-8905-621bc92a8664","createdAt":"2025-10-07T17:22:56.928Z","updatedAt":"2025-10-07T17:22:56.928Z","sections":[],"_count":{"events":3}},{"id":"es-pamplona-baluarte","name":"Palacio de Congresos Baluarte","slug":"baluarte-pamplona","capacity":2200,"address":"Plaza del Baluarte s/n","city":"Pamplona","state":"Navarra","country":"España","postalCode":"31002","latitude":42.817,"longitude":-1.6396,"description":"Palacio de congresos con sala de conciertos","amenities":["parking","bar","restaurante","accesibilidad"],"images":[],"isActive":true,"createdById":"467a0b9f-5cd9-46b0-8905-621bc92a8664","createdAt":"2025-10-07T17:22:56.928Z","updatedAt":"2025-10-07T17:22:56.928Z","sections":[],"_count":{"events":8}},{"id":"es-cordoba-palacio-congresos","name":"Palacio de Congresos de Córdoba","slug":"palacio-congresos-cordoba","capacity":2500,"address":"Calle Torrijos 10","city":"Córdoba","state":"Andalucía","country":"España","postalCode":"14003","latitude":37.881,"longitude":-4.7792,"description":"Centro de congresos para eventos musicales","amenities":["parking","restaurante","bar","accesibilidad"],"images":[],"isActive":true,"createdById":"467a0b9f-5cd9-46b0-8905-621bc92a8664","createdAt":"2025-10-07T17:22:56.928Z","updatedAt":"2025-10-07T17:22:56.928Z","sections":[],"_count":{"events":8}},{"id":"es-malaga-martin-carpena","name":"Palacio de Deportes Martín Carpena","slug":"martin-carpena-malaga","capacity":11300,"address":"Paseo Martiricos 14","city":"Málaga","state":"Andalucía","country":"España","postalCode":"29011","latitude":36.7159,"longitude":-4.4396,"description":"Principal recinto para grandes eventos en Málaga","amenities":["parking","bares","restaurantes","accesibilidad"],"images":[],"isActive":true,"createdById":"467a0b9f-5cd9-46b0-8905-621bc92a8664","createdAt":"2025-10-07T17:22:56.928Z","updatedAt":"2025-10-07T17:22:56.928Z","sections":[],"_count":{"events":9}},{"id":"es-barcelona-palau-sant-jordi","name":"Palau Sant Jordi","slug":"palau-sant-jordi-barcelona","capacity":17000,"address":"Passeig Olímpic 5-7","city":"Barcelona","state":"Cataluña","country":"España","postalCode":"08038","latitude":41.3647,"longitude":2.1532,"description":"Emblemático pabellón olímpico para grandes conciertos","amenities":["parking","restaurantes","bares","tienda","vip"],"images":[],"isActive":true,"createdById":"467a0b9f-5cd9-46b0-8905-621bc92a8664","createdAt":"2025-10-07T17:22:56.928Z","updatedAt":"2025-10-07T17:22:56.928Z","sections":[],"_count":{"events":9}},{"id":"eedf995f-f060-4105-81b5-8b46dd58be37","name":"Palau de les Arts","slug":"palau-de-les-arts","capacity":1800,"address":"Av. del Professor L??pez Pi??ero 1","city":"Valencia","state":null,"country":"España","postalCode":"46013","latitude":null,"longitude":null,"description":"Opera house de Valencia","amenities":["parking","restaurante","tienda"],"images":[],"isActive":true,"createdById":"467a0b9f-5cd9-46b0-8905-621bc92a8664","createdAt":"2025-09-26T17:06:42.338Z","updatedAt":"2025-09-26T17:06:42.338Z","sections":[],"_count":{"events":4}},{"id":"it-rome-palalottomatica","name":"Palazzo dello Sport","slug":"palalottomatica-rome","capacity":11000,"address":"Piazzale dello Sport","city":"Rome","state":"Lazio","country":"Italy","postalCode":"00144","latitude":41.8318,"longitude":12.4673,"description":"Major indoor arena for concerts in Rome","amenities":["parking","bars","merchandise","accessibility"],"images":[],"isActive":true,"createdById":"467a0b9f-5cd9-46b0-8905-621bc92a8664","createdAt":"2025-10-07T17:22:51.692Z","updatedAt":"2025-10-07T17:22:51.692Z","sections":[],"_count":{"events":5}},{"id":"nl-amsterdam-paradiso","name":"Paradiso","slug":"paradiso-amsterdam","capacity":1500,"address":"Weteringschans","city":"Amsterdam","state":"North Holland","country":"Netherlands","postalCode":"1017 SG","latitude":52.3619,"longitude":4.883,"description":"Historic church converted into music venue","amenities":["bar","balcony","merchandise"],"images":[],"isActive":true,"createdById":"467a0b9f-5cd9-46b0-8905-621bc92a8664","createdAt":"2025-10-07T17:22:51.692Z","updatedAt":"2025-10-07T17:22:51.692Z","sections":[],"_count":{"events":8}},{"id":"es-vigo-pazo-cultura","name":"Pazo da Cultura","slug":"pazo-cultura-vigo","capacity":1500,"address":"Rúa Vázquez Varela s/n","city":"Vigo","state":"Galicia","country":"España","postalCode":"36201","latitude":42.2328,"longitude":-8.7119,"description":"Centro cultural con sala de conciertos","amenities":["parking","bar","accesibilidad"],"images":[],"isActive":true,"createdById":"467a0b9f-5cd9-46b0-8905-621bc92a8664","createdAt":"2025-10-07T17:22:56.928Z","updatedAt":"2025-10-07T17:22:56.928Z","sections":[],"_count":{"events":9}},{"id":"es-gijon-plaza-toros","name":"Plaza de Toros El Bibio","slug":"el-bibio-gijon","capacity":12000,"address":"Camino de la Providencia s/n","city":"Gijón","state":"Asturias","country":"España","postalCode":"33203","latitude":43.5365,"longitude":-5.6371,"description":"Plaza convertida en espacio para festivales","amenities":["parking","bares","food-trucks"],"images":[],"isActive":true,"createdById":"467a0b9f-5cd9-46b0-8905-621bc92a8664","createdAt":"2025-10-07T17:22:56.928Z","updatedAt":"2025-10-07T17:22:56.928Z","sections":[],"_count":{"events":3}},{"id":"es-alicante-plaza-toros","name":"Plaza de Toros de Alicante","slug":"plaza-toros-alicante","capacity":15000,"address":"Plaza de España s/n","city":"Alicante","state":"Comunidad Valenciana","country":"España","postalCode":"03001","latitude":38.3453,"longitude":-0.4897,"description":"Plaza de toros adaptada para festivales de rock","amenities":["parking","bares","food-trucks"],"images":[],"isActive":true,"createdById":"467a0b9f-5cd9-46b0-8905-621bc92a8664","createdAt":"2025-10-07T17:22:56.928Z","updatedAt":"2025-10-07T17:22:56.928Z","sections":[],"_count":{"events":4}},{"id":"ed18fb98-1c7f-4859-8f5c-3f3e099cebd3","name":"Plaça de Baix","slug":"placa-de-baix","capacity":100000,"address":"C/ una dos tres","city":"Ontinyent","state":null,"country":"España","postalCode":"46001","latitude":null,"longitude":null,"description":null,"amenities":["parking","bar"],"images":[],"isActive":true,"createdById":"26fa8809-a1a4-4242-9d09-42e65e5ee368","createdAt":"2025-09-27T17:41:44.671Z","updatedAt":"2025-09-27T18:10:14.797Z","sections":[],"_count":{"events":1}},{"id":"aedfb2d3-7fac-40c2-be1a-f535177ae72c","name":"Plaça de Dalt","slug":"placa-de-dalt","capacity":10000,"address":"c/dos","city":"Agullent","state":null,"country":"España","postalCode":"46001","latitude":null,"longitude":null,"description":null,"amenities":["parking","bar"],"images":[],"isActive":true,"createdById":"26fa8809-a1a4-4242-9d09-42e65e5ee368","createdAt":"2025-09-27T17:53:13.626Z","updatedAt":"2025-09-27T17:53:13.626Z","sections":[],"_count":{"events":1}},{"id":"8d0df3a8-ca2b-4f0d-b76f-2f2c04dd50e9","name":"Recinto Ferial Valencia Rock","slug":"recinto-ferial-valencia-rock","capacity":15000,"address":"Av. de las Ferias s/n","city":"Valencia","state":"Valencia","country":"España","postalCode":"46035","latitude":null,"longitude":null,"description":"Recinto al aire libre ideal para festivales de rock y metal","amenities":["parking","food-trucks","merchandise-stands","security","medical-post"],"images":[],"isActive":true,"createdById":"467a0b9f-5cd9-46b0-8905-621bc92a8664","createdAt":"2025-09-26T20:22:41.999Z","updatedAt":"2025-09-26T20:22:41.999Z","sections":[{"id":"b8f086b1-7789-4392-a136-19bc0867a53d","venueId":"8d0df3a8-ca2b-4f0d-b76f-2f2c04dd50e9","name":"Pit","capacity":5000,"rowCount":1,"seatsPerRow":5000},{"id":"3bbe74c6-43de-4b7d-a8a8-291baef28fb5","venueId":"8d0df3a8-ca2b-4f0d-b76f-2f2c04dd50e9","name":"General Standing","capacity":8000,"rowCount":1,"seatsPerRow":8000},{"id":"6e92ce1a-088d-4ad7-a27d-f5dd39f670a9","venueId":"8d0df3a8-ca2b-4f0d-b76f-2f2c04dd50e9","name":"VIP Area","capacity":2000,"rowCount":10,"seatsPerRow":200}],"_count":{"events":7}},{"id":"6041a699-2a83-4518-b458-5db09b90c31a","name":"Recinto Ferial Valencia Rock","slug":"recinto-ferial-valencia-rock-2024","capacity":15000,"address":"Av. de las Ferias s/n","city":"Valencia","state":"Valencia","country":"España","postalCode":"46035","latitude":null,"longitude":null,"description":"Recinto al aire libre ideal para festivales de rock y metal","amenities":["parking","food-trucks","merchandise-stands","security","medical-post"],"images":[],"isActive":true,"createdById":"467a0b9f-5cd9-46b0-8905-621bc92a8664","createdAt":"2025-09-26T20:29:14.471Z","updatedAt":"2025-09-26T20:29:14.471Z","sections":[],"_count":{"events":3}},{"id":"uk-london-roundhouse","name":"Roundhouse","slug":"roundhouse-london","capacity":3300,"address":"Chalk Farm Road","city":"London","state":"England","country":"United Kingdom","postalCode":"NW1 8EH","latitude":51.5434,"longitude":-0.152,"description":"Historic venue known for legendary rock performances","amenities":["bar","accessibility","standing-area","balcony"],"images":[],"isActive":true,"createdById":"467a0b9f-5cd9-46b0-8905-621bc92a8664","createdAt":"2025-10-07T17:22:51.692Z","updatedAt":"2025-10-07T17:22:51.692Z","sections":[],"_count":{"events":7}},{"id":"dk-copenhagen-royal-arena","name":"Royal Arena","slug":"royal-arena-copenhagen","capacity":16000,"address":"Hannemanns Allé","city":"Copenhagen","state":"Capital Region","country":"Denmark","postalCode":"2300","latitude":55.635,"longitude":12.5773,"description":"Modern multi-purpose arena","amenities":["parking","restaurants","bars","merchandise","vip"],"images":[],"isActive":true,"createdById":"467a0b9f-5cd9-46b0-8905-621bc92a8664","createdAt":"2025-10-07T17:22:51.692Z","updatedAt":"2025-10-07T17:22:51.692Z","sections":[],"_count":{"events":7}},{"id":"es-barcelona-apolo","name":"Sala Apolo","slug":"apolo-barcelona","capacity":1600,"address":"Carrer Nou de la Rambla 113","city":"Barcelona","state":"Cataluña","country":"España","postalCode":"08004","latitude":41.3742,"longitude":2.1683,"description":"Histórica sala de conciertos en el Paral·lel","amenities":["bar","terraza","disco","merchandising"],"images":[],"isActive":true,"createdById":"467a0b9f-5cd9-46b0-8905-621bc92a8664","createdAt":"2025-10-07T17:22:56.928Z","updatedAt":"2025-10-07T17:22:56.928Z","sections":[],"_count":{"events":4}},{"id":"es-barcelona-bikini","name":"Sala Bikini","slug":"bikini-barcelona","capacity":900,"address":"Avinguda Diagonal 547","city":"Barcelona","state":"Cataluña","country":"España","postalCode":"08029","latitude":41.388,"longitude":2.1341,"description":"Clásico barcelonés desde los años 50","amenities":["bar","terraza","parking","accesibilidad"],"images":[],"isActive":true,"createdById":"467a0b9f-5cd9-46b0-8905-621bc92a8664","createdAt":"2025-10-07T17:22:56.928Z","updatedAt":"2025-10-07T17:22:56.928Z","sections":[],"_count":{"events":4}},{"id":"es-madrid-but","name":"Sala But","slug":"but-madrid","capacity":1200,"address":"Calle de Barceló 11","city":"Madrid","state":"Madrid","country":"España","postalCode":"28004","latitude":40.4286,"longitude":-3.7013,"description":"Sala alternativa en el corazón de Madrid","amenities":["bar","guardarropa","merchandising"],"images":[],"isActive":true,"createdById":"467a0b9f-5cd9-46b0-8905-621bc92a8664","createdAt":"2025-10-07T17:22:56.928Z","updatedAt":"2025-10-07T17:22:56.928Z","sections":[],"_count":{"events":4}},{"id":"es-santiago-sala-capitol","name":"Sala Capitol","slug":"sala-capitol-santiago","capacity":1600,"address":"Rúa do Hórreo 1","city":"Santiago de Compostela","state":"Galicia","country":"España","postalCode":"15702","latitude":42.8782,"longitude":-8.5448,"description":"Sala multiusos para conciertos y eventos","amenities":["parking","bar","guardarropa"],"images":[],"isActive":true,"createdById":"467a0b9f-5cd9-46b0-8905-621bc92a8664","createdAt":"2025-10-07T17:22:56.928Z","updatedAt":"2025-10-07T17:22:56.928Z","sections":[],"_count":{"events":0}},{"id":"es-sevilla-custom","name":"Sala Custom","slug":"custom-sevilla","capacity":1200,"address":"Calle Matemáticos Rey Pastor y Castro 1","city":"Sevilla","state":"Andalucía","country":"España","postalCode":"41092","latitude":37.4078,"longitude":-5.9943,"description":"Referente del rock y metal en Sevilla","amenities":["bar","parking","aire-acondicionado"],"images":[],"isActive":true,"createdById":"467a0b9f-5cd9-46b0-8905-621bc92a8664","createdAt":"2025-10-07T17:22:56.928Z","updatedAt":"2025-10-07T17:22:56.928Z","sections":[],"_count":{"events":7}},{"id":"es-donostia-dabadaba","name":"Sala Dabadaba","slug":"dabadaba-donostia","capacity":800,"address":"Paseo de Salamanca 3","city":"San Sebastián","state":"País Vasco","country":"España","postalCode":"20003","latitude":43.3158,"longitude":-1.9854,"description":"Sala de referencia para música alternativa","amenities":["bar","terraza","merchandising"],"images":[],"isActive":true,"createdById":"467a0b9f-5cd9-46b0-8905-621bc92a8664","createdAt":"2025-10-07T17:22:56.928Z","updatedAt":"2025-10-07T17:22:56.928Z","sections":[],"_count":{"events":0}},{"id":"es-murcia-garaje-beat","name":"Sala Garaje Beat Club","slug":"garaje-beat-murcia","capacity":750,"address":"Calle Universidad 8","city":"Murcia","state":"Murcia","country":"España","postalCode":"30001","latitude":37.9886,"longitude":-1.1299,"description":"Referente del rock alternativo en Murcia","amenities":["bar","terraza","merchandising"],"images":[],"isActive":true,"createdById":"467a0b9f-5cd9-46b0-8905-621bc92a8664","createdAt":"2025-10-07T17:22:56.928Z","updatedAt":"2025-10-07T17:22:56.928Z","sections":[],"_count":{"events":0}},{"id":"es-madrid-la-riviera","name":"Sala La Riviera","slug":"la-riviera-madrid","capacity":2500,"address":"Paseo Bajo de la Virgen del Puerto s/n","city":"Madrid","state":"Madrid","country":"España","postalCode":"28005","latitude":40.4148,"longitude":-3.722,"description":"Sala mítica de Madrid con terraza exterior","amenities":["bar","terraza","guardarropa","tienda"],"images":[],"isActive":true,"createdById":"467a0b9f-5cd9-46b0-8905-621bc92a8664","createdAt":"2025-10-07T17:22:56.928Z","updatedAt":"2025-10-07T17:22:56.928Z","sections":[],"_count":{"events":3}},{"id":"es-malaga-trinchera","name":"Sala La Trinchera","slug":"la-trinchera-malaga","capacity":600,"address":"Plaza de la Solidaridad 10","city":"Málaga","state":"Andalucía","country":"España","postalCode":"29002","latitude":36.7167,"longitude":-4.4201,"description":"Sala underground para rock y metal","amenities":["bar","merchandising"],"images":[],"isActive":true,"createdById":"467a0b9f-5cd9-46b0-8905-621bc92a8664","createdAt":"2025-10-07T17:22:56.928Z","updatedAt":"2025-10-07T17:22:56.928Z","sections":[],"_count":{"events":0}},{"id":"es-valladolid-lava","name":"Sala Lava","slug":"lava-valladolid","capacity":900,"address":"Calle San Quirce 10","city":"Valladolid","state":"Castilla y León","country":"España","postalCode":"47004","latitude":41.6516,"longitude":-4.7302,"description":"Sala de rock en el centro de Valladolid","amenities":["bar","guardarropa","merchandising"],"images":[],"isActive":true,"createdById":"467a0b9f-5cd9-46b0-8905-621bc92a8664","createdAt":"2025-10-07T17:22:56.928Z","updatedAt":"2025-10-07T17:22:56.928Z","sections":[],"_count":{"events":5}},{"id":"es-zaragoza-sala-lopez","name":"Sala López","slug":"sala-lopez-zaragoza","capacity":800,"address":"Calle Ponzano 7","city":"Zaragoza","state":"Aragón","country":"España","postalCode":"50003","latitude":41.6496,"longitude":-0.8876,"description":"Mítica sala de rock zaragozana","amenities":["bar","guardarropa"],"images":[],"isActive":true,"createdById":"467a0b9f-5cd9-46b0-8905-621bc92a8664","createdAt":"2025-10-07T17:22:56.928Z","updatedAt":"2025-10-07T17:22:56.928Z","sections":[],"_count":{"events":0}},{"id":"es-madrid-moby-dick","name":"Sala Moby Dick","slug":"moby-dick-madrid","capacity":900,"address":"Avenida de Brasil 5","city":"Madrid","state":"Madrid","country":"España","postalCode":"28020","latitude":40.4565,"longitude":-3.6927,"description":"Referente del rock en Madrid desde hace décadas","amenities":["bar","aire-acondicionado","sonido-profesional"],"images":[],"isActive":true,"createdById":"467a0b9f-5cd9-46b0-8905-621bc92a8664","createdAt":"2025-10-07T17:22:56.928Z","updatedAt":"2025-10-07T17:22:56.928Z","sections":[],"_count":{"events":5}},{"id":"es-granada-planta-baja","name":"Sala Planta Baja","slug":"planta-baja-granada","capacity":600,"address":"Calle Horno de Abad 11","city":"Granada","state":"Andalucía","country":"España","postalCode":"18002","latitude":37.1739,"longitude":-3.5974,"description":"Sala alternativa en pleno centro","amenities":["bar","merchandising"],"images":[],"isActive":true,"createdById":"467a0b9f-5cd9-46b0-8905-621bc92a8664","createdAt":"2025-10-07T17:22:56.928Z","updatedAt":"2025-10-07T17:22:56.928Z","sections":[],"_count":{"events":0}},{"id":"es-barcelona-razzmatazz","name":"Sala Razzmatazz","slug":"razzmatazz-barcelona","capacity":3000,"address":"Carrer dels Almogàvers 122","city":"Barcelona","state":"Cataluña","country":"España","postalCode":"08018","latitude":41.3959,"longitude":2.1911,"description":"Complejo con 5 salas para todo tipo de conciertos","amenities":["bar","multiple-salas","guardarropa","merchandising"],"images":[],"isActive":true,"createdById":"467a0b9f-5cd9-46b0-8905-621bc92a8664","createdAt":"2025-10-07T17:22:56.928Z","updatedAt":"2025-10-07T17:22:56.928Z","sections":[],"_count":{"events":4}},{"id":"8d03b434-20a7-46a6-b5c9-76e98fe7e9a0","name":"Sala Rockstar Valencia","slug":"sala-rockstar-valencia","capacity":2500,"address":"Calle del Rock 15","city":"Valencia","state":"Valencia","country":"España","postalCode":"46001","latitude":null,"longitude":null,"description":"Sala especializada en conciertos de rock y metal con excelente acústica","amenities":["bar","merchandise","coat-check","professional-sound","stage-lighting"],"images":[],"isActive":true,"createdById":"467a0b9f-5cd9-46b0-8905-621bc92a8664","createdAt":"2025-09-26T20:22:44.081Z","updatedAt":"2025-09-26T20:22:44.081Z","sections":[{"id":"07f34d0d-b37d-47e5-b1eb-230c976538e0","venueId":"8d03b434-20a7-46a6-b5c9-76e98fe7e9a0","name":"Moshpit","capacity":800,"rowCount":1,"seatsPerRow":800},{"id":"7ddeb49c-3f42-4d97-84fe-cd0def254e70","venueId":"8d03b434-20a7-46a6-b5c9-76e98fe7e9a0","name":"Standing General","capacity":1200,"rowCount":1,"seatsPerRow":1200},{"id":"a7ba0299-3a7c-4f78-b9e6-fc983f72218c","venueId":"8d03b434-20a7-46a6-b5c9-76e98fe7e9a0","name":"Balcony VIP","capacity":500,"rowCount":5,"seatsPerRow":100}],"_count":{"events":9}},{"id":"56bcb5a9-59c0-4476-b69c-649acfec88d4","name":"Sala Rockstar Valencia","slug":"sala-rockstar-valencia-2024","capacity":2500,"address":"Calle del Rock 15","city":"Valencia","state":"Valencia","country":"España","postalCode":"46001","latitude":null,"longitude":null,"description":"Sala especializada en conciertos de rock y metal con excelente ac??stica","amenities":["bar","merchandise","coat-check","professional-sound","stage-lighting"],"images":[],"isActive":true,"createdById":"467a0b9f-5cd9-46b0-8905-621bc92a8664","createdAt":"2025-09-26T20:29:16.527Z","updatedAt":"2025-09-26T20:29:16.527Z","sections":[],"_count":{"events":7}},{"id":"es-barcelona-sant-jordi-club","name":"Sant Jordi Club","slug":"sant-jordi-club-barcelona","capacity":4500,"address":"Passeig Olímpic 5-7","city":"Barcelona","state":"Cataluña","country":"España","postalCode":"08038","latitude":41.3645,"longitude":2.1528,"description":"Sala versátil junto al Palau Sant Jordi","amenities":["parking","bar","merchandising","accesibilidad"],"images":[],"isActive":true,"createdById":"467a0b9f-5cd9-46b0-8905-621bc92a8664","createdAt":"2025-10-07T17:22:56.928Z","updatedAt":"2025-10-07T17:22:56.928Z","sections":[],"_count":{"events":4}},{"id":"001baa5a-7e6c-4561-8aa3-d154f74b6503","name":"Teatro Principal Valencia","slug":"teatro-principal-valencia","capacity":1500,"address":"Calle Mayor 1","city":"Valencia","state":"Valencia","country":"España","postalCode":"46001","latitude":null,"longitude":null,"description":"Teatro histórico renovado en 2024, ubicado en el corazón de Valencia","amenities":["parking","wifi","accesibilidad","cafeteria","restaurante"],"images":[],"isActive":true,"createdById":"467a0b9f-5cd9-46b0-8905-621bc92a8664","createdAt":"2025-09-26T17:05:01.928Z","updatedAt":"2025-09-26T17:06:22.435Z","sections":[{"id":"47940a17-b99c-46c8-9134-476eb1ad234c","venueId":"001baa5a-7e6c-4561-8aa3-d154f74b6503","name":"Platea","capacity":800,"rowCount":20,"seatsPerRow":40},{"id":"9c5bfee9-bf32-4b60-a79d-632fc757c1a1","venueId":"001baa5a-7e6c-4561-8aa3-d154f74b6503","name":"Tribuna","capacity":500,"rowCount":15,"seatsPerRow":34},{"id":"1e6a9781-0693-46de-87e2-b74883cccef9","venueId":"001baa5a-7e6c-4561-8aa3-d154f74b6503","name":"VIP","capacity":200,"rowCount":5,"seatsPerRow":40}],"_count":{"events":5}},{"id":"1156c683-d97e-4c3f-b5fe-70e28b5d9aaa","name":"Test Venue","slug":"test-venue-simple","capacity":1000,"address":"Test Address","city":"Valencia","state":null,"country":"España","postalCode":"46001","latitude":null,"longitude":null,"description":null,"amenities":[],"images":[],"isActive":true,"createdById":"467a0b9f-5cd9-46b0-8905-621bc92a8664","createdAt":"2025-09-26T20:26:57.007Z","updatedAt":"2025-09-26T20:26:57.007Z","sections":[],"_count":{"events":8}},{"id":"es-alicante-the-music-republic","name":"The Music Republic","slug":"the-music-republic-alicante","capacity":1000,"address":"Calle San Fernando 51","city":"Alicante","state":"Comunidad Valenciana","country":"España","postalCode":"03001","latitude":38.3436,"longitude":-0.4907,"description":"Sala moderna para rock y música alternativa","amenities":["bar","terraza","aire-acondicionado"],"images":[],"isActive":true,"createdById":"467a0b9f-5cd9-46b0-8905-621bc92a8664","createdAt":"2025-10-07T17:22:56.928Z","updatedAt":"2025-10-07T17:22:56.928Z","sections":[],"_count":{"events":0}},{"id":"uk-london-o2-arena","name":"The O2 Arena","slug":"o2-arena-london","capacity":20000,"address":"Peninsula Square","city":"London","state":"England","country":"United Kingdom","postalCode":"SE10 0DX","latitude":51.5033,"longitude":-0.0031,"description":"Iconic arena hosting major rock and metal concerts","amenities":["parking","restaurants","bars","merchandise","vip-lounges","accessibility"],"images":[],"isActive":true,"createdById":"467a0b9f-5cd9-46b0-8905-621bc92a8664","createdAt":"2025-10-07T17:22:51.692Z","updatedAt":"2025-10-07T17:22:51.692Z","sections":[],"_count":{"events":5}},{"id":"pl-warsaw-torwar","name":"Torwar Hall","slug":"torwar-warsaw","capacity":4800,"address":"Łazienkowska","city":"Warsaw","state":"Mazovia","country":"Poland","postalCode":"00-449","latitude":52.2189,"longitude":21.037,"description":"Historic venue for rock concerts","amenities":["parking","bar","merchandise"],"images":[],"isActive":true,"createdById":"467a0b9f-5cd9-46b0-8905-621bc92a8664","createdAt":"2025-10-07T17:22:51.692Z","updatedAt":"2025-10-07T17:22:51.692Z","sections":[],"_count":{"events":5}},{"id":"es-palma-son-fusteret","name":"Velódromo Son Fusteret","slug":"son-fusteret-palma","capacity":6000,"address":"Carrer de Gremi Corredors 16","city":"Palma de Mallorca","state":"Islas Baleares","country":"España","postalCode":"07009","latitude":39.5836,"longitude":2.6503,"description":"Velódromo adaptado para conciertos al aire libre","amenities":["parking","bar","food-trucks"],"images":[],"isActive":true,"createdById":"467a0b9f-5cd9-46b0-8905-621bc92a8664","createdAt":"2025-10-07T17:22:56.928Z","updatedAt":"2025-10-07T17:22:56.928Z","sections":[],"_count":{"events":6}},{"id":"es-madrid-wizink-center","name":"WiZink Center","slug":"wizink-center-madrid","capacity":17000,"address":"Avenida Felipe II s/n","city":"Madrid","state":"Madrid","country":"España","postalCode":"28009","latitude":40.4222,"longitude":-3.6692,"description":"Principal recinto cubierto de Madrid para grandes conciertos","amenities":["parking","restaurantes","bares","tienda","vip","accesibilidad"],"images":[],"isActive":true,"createdById":"467a0b9f-5cd9-46b0-8905-621bc92a8664","createdAt":"2025-10-07T17:22:56.928Z","updatedAt":"2025-10-07T17:22:56.928Z","sections":[],"_count":{"events":10}},{"id":"at-vienna-stadthalle","name":"Wiener Stadthalle","slug":"stadthalle-vienna","capacity":16000,"address":"Vogelweidplatz","city":"Vienna","state":"Vienna","country":"Austria","postalCode":"1150","latitude":48.2027,"longitude":16.3352,"description":"Multi-purpose venue for major concerts","amenities":["parking","restaurants","bars","merchandise"],"images":[],"isActive":true,"createdById":"467a0b9f-5cd9-46b0-8905-621bc92a8664","createdAt":"2025-10-07T17:22:51.692Z","updatedAt":"2025-10-07T17:22:51.692Z","sections":[],"_count":{"events":8}},{"id":"nl-amsterdam-ziggo-dome","name":"Ziggo Dome","slug":"ziggo-dome-amsterdam","capacity":17000,"address":"De Passage","city":"Amsterdam","state":"North Holland","country":"Netherlands","postalCode":"1101 AX","latitude":52.3138,"longitude":4.9389,"description":"Modern arena hosting major international tours","amenities":["parking","restaurants","bars","merchandise","vip"],"images":[],"isActive":true,"createdById":"467a0b9f-5cd9-46b0-8905-621bc92a8664","createdAt":"2025-10-07T17:22:51.692Z","updatedAt":"2025-10-07T17:22:51.692Z","sections":[],"_count":{"events":3}}],"pagination":{"total":85,"page":1,"limit":100,"totalPages":1}}